[
  {
    "id": 1,
    "name": "강원",
    "location": {
      "address": "fake address",
      "phone": "fake phone",
      "areaCode": "fake area code",
      "latitude": "fake latitude",
      "longitude": "fake longitude"
    },
    "image": "images/seoul-01.jpg",
    "description": "fake description"
  },
  {
    "id": 2,
    "name": "강원",
    "location": {
      "address": "fake address",
      "phone": "fake phone",
      "areaCode": "fake area code",
      "latitude": "fake latitude",
      "longitude": "fake longitude"
    },
    "image": "images/seoul-02.jpg",
    "description": "fake description"
  },
  {
    "id": 3,
    "name": "강원",
    "location": {
      "address": "fake address",
      "phone": "fake phone",
      "areaCode": "fake area code",
      "latitude": "fake latitude",
      "longitude": "fake longitude"
    },
    "image": "images/seoul-01.jpg",
    "description": "fake description"
  },
  {
    "id": 4,
    "name": "강원",
    "location": {
      "address": "fake address",
      "phone": "fake phone",
      "areaCode": "fake area code",
      "latitude": "fake latitude",
      "longitude": "fake longitude"
    },
    "image": "images/seoul-02.jpg",
    "description": "fake description"
  }
]
