[
  {
    "id": 1,
    "name": "부산",
    "location": {
      "address": "fake address",
      "phone": "fake phone",
      "areaCode": "fake area code",
      "latitude": "fake latitude",
      "longitude": "fake longitude"
    },
    "image": "https://github.com/KSJT/mini/assets/118329943/fa30e68b-83b0-4f33-88da-d3c35a3cc199",
    "description": "fake description"
  },
  {
    "id": 2,
    "name": "부산",
    "location": {
      "address": "fake address",
      "phone": "fake phone",
      "areaCode": "fake area code",
      "latitude": "fake latitude",
      "longitude": "fake longitude"
    },
    "image": "https://github.com/KSJT/mini/assets/118329943/1ad0d716-76fe-445a-96b2-7e15ad5783de",
    "description": "fake description"
  },
  {
    "id": 3,
    "name": "부산",
    "location": {
      "address": "fake address",
      "phone": "fake phone",
      "areaCode": "fake area code",
      "latitude": "fake latitude",
      "longitude": "fake longitude"
    },
    "image": "https://github.com/KSJT/mini/assets/118329943/fa30e68b-83b0-4f33-88da-d3c35a3cc199",
    "description": "fake description"
  },
  {
    "id": 4,
    "name": "부산",
    "location": {
      "address": "fake address",
      "phone": "fake phone",
      "areaCode": "fake area code",
      "latitude": "fake latitude",
      "longitude": "fake longitude"
    },
    "image": "https://github.com/KSJT/mini/assets/118329943/1ad0d716-76fe-445a-96b2-7e15ad5783de",
    "description": "fake description"
  }
]
