[
  {
    "id": 1,
    "description": "설명설명설명설명설명설명설명",
    "image": "http://tong.visitkorea.or.kr/cms/resource/54/2603354_image2_1.jpg",
    "location": {
      "address": "주소주소주소주소주소주소",
      "phone": "전화전화전화전화전화전화",
      "areaCode": "지역코드지역코드지역코드",
      "latitude": "위도위도위도위도위도",
      "longitude": "경도경도경도경도경도"
    },
    "name": "이름이름이름이름이름이름"
  },
  {
    "id": 2,
    "description": "설명설명설명설명설명설명설명",
    "image": "http://tong.visitkorea.or.kr/cms/resource/54/2603354_image2_1.jpg",
    "location": {
      "address": "주소주소주소주소주소주소",
      "phone": "전화전화전화전화전화전화",
      "areaCode": "지역코드지역코드지역코드",
      "latitude": "위도위도위도위도위도",
      "longitude": "경도경도경도경도경도"
    },
    "name": "이름이름이름이름이름이름"
  },
  {
    "id": 3,
    "description": "설명설명설명설명설명설명설명",
    "image": "http://tong.visitkorea.or.kr/cms/resource/54/2603354_image2_1.jpg",
    "location": {
      "address": "주소주소주소주소주소주소",
      "phone": "전화전화전화전화전화전화",
      "areaCode": "지역코드지역코드지역코드",
      "latitude": "위도위도위도위도위도",
      "longitude": "경도경도경도경도경도"
    },
    "name": "이름이름이름이름이름이름"
  },
  {
    "id": 4,
    "description": "설명설명설명설명설명설명설명",
    "image": "http://tong.visitkorea.or.kr/cms/resource/54/2603354_image2_1.jpg",
    "location": {
      "address": "주소주소주소주소주소주소",
      "phone": "전화전화전화전화전화전화",
      "areaCode": "지역코드지역코드지역코드",
      "latitude": "위도위도위도위도위도",
      "longitude": "경도경도경도경도경도"
    },
    "name": "이름이름이름이름이름이름"
  },
  {
    "id": 5,
    "description": "설명설명설명설명설명설명설명",
    "image": "http://tong.visitkorea.or.kr/cms/resource/54/2603354_image2_1.jpg",
    "location": {
      "address": "주소주소주소주소주소주소",
      "phone": "전화전화전화전화전화전화",
      "areaCode": "지역코드지역코드지역코드",
      "latitude": "위도위도위도위도위도",
      "longitude": "경도경도경도경도경도"
    },
    "name": "이름이름이름이름이름이름"
  },
  {
    "id": 6,
    "description": "설명설명설명설명설명설명설명",
    "image": "http://tong.visitkorea.or.kr/cms/resource/54/2603354_image2_1.jpg",
    "location": {
      "address": "주소주소주소주소주소주소",
      "phone": "전화전화전화전화전화전화",
      "areaCode": "지역코드지역코드지역코드",
      "latitude": "위도위도위도위도위도",
      "longitude": "경도경도경도경도경도"
    },
    "name": "이름이름이름이름이름이름"
  },
  {
    "id": 7,
    "description": "설명설명설명설명설명설명설명",
    "image": "http://tong.visitkorea.or.kr/cms/resource/54/2603354_image2_1.jpg",
    "location": {
      "address": "주소주소주소주소주소주소",
      "phone": "전화전화전화전화전화전화",
      "areaCode": "지역코드지역코드지역코드",
      "latitude": "위도위도위도위도위도",
      "longitude": "경도경도경도경도경도"
    },
    "name": "이름이름이름이름이름이름"
  },
  {
    "id": 8,
    "description": "설명설명설명설명설명설명설명",
    "image": "http://tong.visitkorea.or.kr/cms/resource/54/2603354_image2_1.jpg",
    "location": {
      "address": "주소주소주소주소주소주소",
      "phone": "전화전화전화전화전화전화",
      "areaCode": "지역코드지역코드지역코드",
      "latitude": "위도위도위도위도위도",
      "longitude": "경도경도경도경도경도"
    },
    "name": "이름이름이름이름이름이름"
  },
  {
    "id": 9,
    "description": "설명설명설명설명설명설명설명",
    "image": "http://tong.visitkorea.or.kr/cms/resource/54/2603354_image2_1.jpg",
    "location": {
      "address": "주소주소주소주소주소주소",
      "phone": "전화전화전화전화전화전화",
      "areaCode": "지역코드지역코드지역코드",
      "latitude": "위도위도위도위도위도",
      "longitude": "경도경도경도경도경도"
    },
    "name": "이름이름이름이름이름이름"
  },
  {
    "id": 10,
    "description": "설명설명설명설명설명설명설명",
    "image": "http://tong.visitkorea.or.kr/cms/resource/54/2603354_image2_1.jpg",
    "location": {
      "address": "주소주소주소주소주소주소",
      "phone": "전화전화전화전화전화전화",
      "areaCode": "지역코드지역코드지역코드",
      "latitude": "위도위도위도위도위도",
      "longitude": "경도경도경도경도경도"
    },
    "name": "이름이름이름이름이름이름"
  }
]
